[{"id": 103941, "name": "Alan Knudson House", "accountId": 53921, "status": "Active", "peakPower": 10.36, "lastUpdateTime": "2020-01-21", "currency": "USD", "installationDate": "2015-01-31", "ptoDate": null, "notes": "", "type": "Optimizers & Inverters", "location": {"country": "United States", "state": "Arizona", "city": "Centennial Park", "address": "Taylor Court 1745", "address2": "", "zip": "86021", "timeZone": "America/Phoenix", "countryCode": "US", "stateCode": "AZ", "lat": 36.9587533, "long": -112.9758274}, "alertQuantity": 0, "primaryModule": {"manufacturerName": "RENESOLA", "modelName": "SE11400A-US", "maximumPower": 310.0, "temperatureCoef": -0.4}, "uris": {"PUBLIC_URL": "https://monitoring.solaredge.com/solaredge-web/p/public?name=Alan Knudson Canopy", "DATA_PERIOD": "/site/103941/dataPeriod", "DETAILS": "/site/103941/details", "OVERVIEW": "/site/103941/overview"}, "publicSettings": {"name": "Alan Knudson Canopy", "isPublic": true}, "time_interval": {"startDate": "2015-02-09", "endDate": "2020-01-21"}}, {"id": 1232644, "name": "Cherry Orchards Lot#33", "accountId": 53921, "status": "Active", "peakPower": 7.6, "lastUpdateTime": "2020-01-21", "currency": "USD", "installationDate": "2019-08-01", "ptoDate": null, "notes": "", "type": "Optimizers & Inverters", "location": {"country": "United States", "state": "Utah", "city": "La Verkin", "address": "300 North 220", "address2": "", "zip": "84745", "timeZone": "America/Denver", "countryCode": "US", "stateCode": "UT", "lat": 37.2065196, "long": -113.27477809999999}, "alertQuantity": 0, "primaryModule": {"manufacturerName": "Silfab", "modelName": "SLG290P", "maximumPower": 285.0, "temperatureCoef": -0.31}, "uris": {"SITE_IMAGE": "/site/1232644/siteImage/roof%20image.jpg", "DATA_PERIOD": "/site/1232644/dataPeriod", "DETAILS": "/site/1232644/details", "OVERVIEW": "/site/1232644/overview"}, "publicSettings": {"isPublic": false}, "time_interval": {"startDate": "2019-08-14", "endDate": "2020-01-21"}}, {"id": 787197, "name": "Crop Circles Carport", "accountId": 53921, "status": "Active", "peakPower": 12.0, "lastUpdateTime": "2020-01-21", "installationDate": "2018-07-21", "ptoDate": null, "notes": "", "type": "Optimizers & Inverters", "location": {"country": "United States", "state": "Arizona", "city": "Colorado City", "address": "Unnamed Road ", "address2": "", "zip": "86021", "timeZone": "America/Phoenix", "countryCode": "US", "stateCode": "AZ", "lat": 36.9902621, "long": -112.9757702}, "alertQuantity": 0, "primaryModule": {"manufacturerName": "Hanwha Q-Cells", "modelName": " L-G4.2 330", "maximumPower": 330.0, "temperatureCoef": -29.0}, "uris": {"DETAILS": "/site/787197/details", "DATA_PERIOD": "/site/787197/dataPeriod", "OVERVIEW": "/site/787197/overview"}, "publicSettings": {"isPublic": false}, "time_interval": {"startDate": "2018-07-23", "endDate": "2020-01-21"}}, {"id": 238320, "name": "Dave Meyers", "accountId": 53921, "status": "Active", "peakPower": 6.9, "lastUpdateTime": "2017-10-13", "installationDate": "2016-03-31", "ptoDate": null, "notes": "", "type": "Optimizers & Inverters", "location": {"country": "United States", "state": "California", "city": "Belmont", "address": "Somerset Drive 2608", "address2": "", "zip": "94002", "timeZone": "America/Los_Angeles", "countryCode": "US", "stateCode": "CA", "lat": 37.5034316, "long": -122.3064554}, "alertQuantity": 3, "alertSeverity": "HIGH", "primaryModule": {"manufacturerName": "LG", "modelName": "LG300N1C-A3", "maximumPower": 300.0}, "uris": {"DETAILS": "/site/238320/details", "DATA_PERIOD": "/site/238320/dataPeriod", "OVERVIEW": "/site/238320/overview"}, "publicSettings": {"isPublic": false}, "time_interval": {"startDate": "2016-03-31", "endDate": "2017-10-13"}}, {"id": 349060, "name": "Francisco Garcia 1", "accountId": 53921, "status": "Active", "peakPower": 10.5, "lastUpdateTime": "2020-01-21", "currency": "USD", "installationDate": "2016-11-18", "ptoDate": null, "notes": "", "type": "Optimizers & Inverters", "location": {"country": "United States", "state": "Arizona", "city": "Lake Montezuma", "address": "North David Wingfield Road 5295", "address2": "", "zip": "86335", "timeZone": "America/Phoenix", "countryCode": "US", "stateCode": "AZ", "lat": 34.646224700000005, "long": -111.7885507}, "alertQuantity": 0, "primaryModule": {"manufacturerName": "solar world", "modelName": "SW 300 MONO", "maximumPower": 300.0, "temperatureCoef": -0.3}, "uris": {"PUBLIC_URL": "https://monitoring.solaredge.com/solaredge-web/p/public?name=RimrockAZ", "SITE_IMAGE": "/site/349060/siteImage/unnamed.jpg", "DATA_PERIOD": "/site/349060/dataPeriod", "DETAILS": "/site/349060/details", "OVERVIEW": "/site/349060/overview"}, "publicSettings": {"name": "RimrockAZ", "isPublic": true}, "time_interval": {"startDate": "2016-12-28", "endDate": "2020-01-21"}}, {"id": 477834, "name": "Gabriel Pineiro", "accountId": 53921, "status": "Active", "peakPower": 4.48, "lastUpdateTime": "2020-01-21", "installationDate": "2017-05-17", "ptoDate": null, "notes": "", "type": "Optimizers & Inverters", "location": {"country": "United States", "state": "Utah", "city": "Provo", "address": "West 960 North Street 2495", "address2": "", "zip": "84601", "timeZone": "America/Denver", "countryCode": "US", "stateCode": "UT", "lat": 40.2463234, "long": -111.70303290000001}, "alertQuantity": 1, "alertSeverity": "HIGH", "primaryModule": {"manufacturerName": "LG", "modelName": "LG315N1C-G4", "maximumPower": 315.0}, "uris": {"SITE_IMAGE": "/site/477834/siteImage/Aurora%20Solar%20Arial%20Site%20plan.jpg", "DATA_PERIOD": "/site/477834/dataPeriod", "DETAILS": "/site/477834/details", "OVERVIEW": "/site/477834/overview"}, "publicSettings": {"isPublic": false}, "time_interval": {"startDate": "2017-03-09", "endDate": "2020-01-21"}}, {"id": 641826, "name": "Garkane Kanab Pavilion", "accountId": 53921, "status": "Active", "peakPower": 30.0, "lastUpdateTime": "2020-01-21", "installationDate": "2018-02-08", "ptoDate": null, "notes": "", "type": "Optimizers & Inverters", "location": {"country": "United States", "state": "Utah", "city": "Kanab", "address": "West 450 North Street ", "address2": "", "zip": "84741", "timeZone": "America/Denver", "countryCode": "US", "stateCode": "UT", "lat": 37.05509869999999, "long": -112.52786}, "alertQuantity": 0, "primaryModule": {"manufacturerName": "Hanwha", "modelName": "Hanwha Q-Cells", "maximumPower": 295.0}, "uris": {"DETAILS": "/site/641826/details", "DATA_PERIOD": "/site/641826/dataPeriod", "OVERVIEW": "/site/641826/overview"}, "publicSettings": {"isPublic": false}, "time_interval": {"startDate": "2018-02-09", "endDate": "2020-01-21"}}, {"id": 896164, "name": "Huntington Beach", "accountId": 53921, "status": "Active", "peakPower": 8.235, "lastUpdateTime": "2020-01-21", "installationDate": "2018-11-05", "ptoDate": null, "notes": "", "type": "Optimizers & Inverters", "location": {"country": "United States", "state": "California", "city": "Huntington Beach", "address": "Larkmont Drive 5692", "address2": "", "zip": "92649", "timeZone": "America/Los_Angeles", "countryCode": "US", "stateCode": "CA", "lat": 33.704533399999995, "long": -118.0291067}, "alertQuantity": 0, "primaryModule": {"manufacturerName": "Canadian Solar", "modelName": "CF6k-305 MS", "maximumPower": 320.0}, "uris": {"SITE_IMAGE": "/site/896164/siteImage/South%20roof%20panels%20installed.jpg", "DATA_PERIOD": "/site/896164/dataPeriod", "DETAILS": "/site/896164/details", "OVERVIEW": "/site/896164/overview"}, "publicSettings": {"isPublic": false}, "time_interval": {"startDate": "2018-11-06", "endDate": "2020-01-21"}}, {"id": 717193, "name": "Lion House", "accountId": 53921, "status": "Active", "peakPower": 54.0, "lastUpdateTime": "2020-01-21", "currency": "USD", "installationDate": "2017-12-01", "ptoDate": null, "notes": "", "type": "Optimizers & Inverters", "location": {"country": "United States", "state": "Arizona", "city": "Colorado City", "address": "Taylor Court 185", "address2": "", "zip": "86021", "timeZone": "America/Phoenix", "countryCode": "US", "stateCode": "AZ", "lat": 36.95268069999999, "long": -112.9597072}, "alertQuantity": 0, "primaryModule": {"manufacturerName": "Hanwha Q-Cells", "modelName": "L-G5 340", "maximumPower": 340.0, "temperatureCoef": -0.4}, "uris": {"SITE_IMAGE": "/site/717193/siteImage/arial%20carport%20image.jpg", "DATA_PERIOD": "/site/717193/dataPeriod", "DETAILS": "/site/717193/details", "OVERVIEW": "/site/717193/overview"}, "publicSettings": {"isPublic": false}, "time_interval": {"startDate": "2018-04-21", "endDate": "2020-01-21"}}, {"id": 627759, "name": "Michael Cawley", "accountId": 53921, "status": "Active", "peakPower": 18.0, "lastUpdateTime": "2020-01-21", "currency": "USD", "installationDate": "2018-01-01", "ptoDate": null, "notes": "", "type": "Optimizers & Inverters", "location": {"country": "United States", "state": "Arizona", "city": "Colorado City", "address": "West Nuttall Avenue 560", "address2": "", "zip": "86021", "timeZone": "America/Phoenix", "countryCode": "US", "stateCode": "AZ", "lat": 36.958596, "long": -112.98454709999999}, "alertQuantity": 0, "primaryModule": {"manufacturerName": "LG", "modelName": "300N1C", "maximumPower": 300.0, "temperatureCoef": -0.31}, "uris": {"SITE_IMAGE": "/site/627759/siteImage/pic%20final%20equipt%20layout%20for%20permitting.jpg", "DATA_PERIOD": "/site/627759/dataPeriod", "DETAILS": "/site/627759/details", "OVERVIEW": "/site/627759/overview"}, "publicSettings": {"isPublic": false}, "time_interval": {"startDate": "2018-01-17", "endDate": "2020-01-21"}}, {"id": 569932, "name": "Quail Creek Ranch", "accountId": 53921, "status": "Active", "peakPower": 24.0, "lastUpdateTime": "2020-01-21", "installationDate": "2017-10-23", "ptoDate": null, "notes": "", "type": "Optimizers & Inverters", "location": {"country": "United States", "state": "Utah", "city": "Hurricane", "address": "4275 West 324", "address2": "", "zip": "84737", "timeZone": "America/Denver", "countryCode": "US", "stateCode": "UT", "lat": 37.17510499999999, "long": -113.382926}, "alertQuantity": 0, "primaryModule": {"manufacturerName": "Hanwha Q-Cells", "modelName": " L-G4.2 330", "maximumPower": 330.0, "temperatureCoef": -29.0}, "uris": {"SITE_IMAGE": "/site/569932/siteImage/qc%20ranch%20installation%20image.jpg", "DATA_PERIOD": "/site/569932/dataPeriod", "DETAILS": "/site/569932/details", "OVERVIEW": "/site/569932/overview"}, "publicSettings": {"isPublic": false}, "time_interval": {"startDate": "2017-10-23", "endDate": "2020-01-21"}}, {"id": 466851, "name": "Ronald L. McClellan Sr.", "accountId": 53921, "status": "Active", "peakPower": 9.6, "lastUpdateTime": "2020-01-21", "installationDate": "2017-05-17", "ptoDate": null, "notes": "", "type": "Optimizers & Inverters", "location": {"country": "United States", "state": "Utah", "city": "West Valley City", "address": "West 2730 South 2916", "address2": "", "zip": "84119", "timeZone": "America/Denver", "countryCode": "US", "stateCode": "UT", "lat": 40.710912, "long": -111.962157}, "alertQuantity": 0, "primaryModule": {"manufacturerName": "LG", "modelName": "Neon2 320W", "maximumPower": 320.0}, "uris": {"SITE_IMAGE": "/site/466851/siteImage/Aurora%20Solar%20Portrait%20cropped.jpg", "DATA_PERIOD": "/site/466851/dataPeriod", "DETAILS": "/site/466851/details", "OVERVIEW": "/site/466851/overview"}, "publicSettings": {"isPublic": false}, "time_interval": {"startDate": "2017-02-24", "endDate": "2020-01-21"}}, {"id": 256177, "name": "Sam Zitting", "accountId": 53921, "status": "Active", "peakPower": 25.0, "lastUpdateTime": "2020-01-21", "installationDate": "2016-05-20", "ptoDate": null, "notes": "", "type": "Optimizers & Inverters", "location": {"country": "United States", "state": "Arizona", "city": "Colorado City", "address": "Earl Avenue 665", "address2": "", "zip": "86021", "timeZone": "America/Phoenix", "countryCode": "US", "stateCode": "AZ", "lat": 36.9591277, "long": -112.98887739999999}, "alertQuantity": 0, "primaryModule": {"manufacturerName": "LG", "modelName": "275w mono", "maximumPower": 275.0}, "uris": {"DETAILS": "/site/256177/details", "DATA_PERIOD": "/site/256177/dataPeriod", "OVERVIEW": "/site/256177/overview"}, "publicSettings": {"isPublic": false}, "time_interval": {"startDate": "2016-05-16", "endDate": "2020-01-21"}}, {"id": 505347, "name": "SunGrow, Wilkins and Juniper", "accountId": 53921, "status": "Active", "peakPower": 60.0, "lastUpdateTime": "2019-10-02", "installationDate": "2017-07-20", "ptoDate": null, "notes": "", "type": "Optimizers & Inverters", "location": {"country": "United States", "state": "Arizona", "city": "Colorado City", "address": "Juniper Street 2085", "address2": "", "zip": "86021", "timeZone": "America/Phoenix", "countryCode": "US", "stateCode": "AZ", "lat": 36.952701, "long": -112.99262320000001}, "alertQuantity": 1, "alertSeverity": "INFO", "primaryModule": {"manufacturerName": "Hanwha Q-Cells", "modelName": " L-G4.2 330", "maximumPower": 330.0, "temperatureCoef": -29.0}, "uris": {"SITE_IMAGE": "/site/505347/siteImage/IMG_0061%20(1).jpg", "DATA_PERIOD": "/site/505347/dataPeriod", "DETAILS": "/site/505347/details", "OVERVIEW": "/site/505347/overview"}, "publicSettings": {"isPublic": false}, "time_interval": {"startDate": "2017-06-08", "endDate": "2019-10-02"}}]